{"type":"FeatureCollection","features":[{"type":"Feature","geometry":{"type":"Point","coordinates":[-115.7295,33.3481]},"id":"4c49e6ac-2392-4938-b6c2-d7a1ac8f2f2d","properties":{"name":"Bombay Beach Community Center","type":["hydration_station"],"hours":"Please call ahead to confirm if the site will be open. Hydration station is dependent on staff availability.","phone":"760.550.3264","address":"9590 Avenue C, Niland, CA 92257"}},{"type":"Feature","geometry":{"type":"Point","coordinates":[-115.5611,32.7947]},"id":"dccf0601-205e-4052-9a7a-7aea8971dd97","properties":{"name":"State Street Bus Stop","type":["cool_center"],"hours":"Misters will be activated from 11am to 8pm, Daily.","address":"W. State St and S. 7th St, El Centro, CA 92243"}},{"type":"Feature","geometry":{"type":"Point","coordinates":[-115.3804,32.8121]},"id":"7846857a-55c7-431b-b6be-4773737743b5","properties":{"name":"Holtville City Hall","type":["cool_center","hydration_station"],"hours":"Mon. - Fri. 7 am - 5:30 pm. Closed 12-1 pm.","phone":"760.356.2912","address":"121 W 5th St, Holtville, CA 92250"}},{"type":"Feature","geometry":{"type":"Point","coordinates":[-115.5147,33.1256]},"id":"8f0d7e0a-4d82-4383-a610-d405efca50b8","properties":{"name":"Imperial County Calipatria Library","type":["cool_center","hydration_station"],"hours":"Mon.-Fri. 9 am- 5:30pm. Closed 1 pm- 2 pm.","phone":"760.348.2630","address":"105 S Lake Ave, Calipatria, CA 92233"}},{"type":"Feature","geometry":{"type":"Point","coordinates":[-115.5611,32.7947]},"id":"68922a1d-ff8e-4406-a011-325e66c283ac","properties":{"name":"Catholic Charities","type":["cool_center","hydration_station"],"hours":"Mon.-Sun. 8:30am-4:30pm This facility serves people who are unhoused. Transportation to and from the Day Center may be available, please call for more information","phone":"760.353.6822","address":"250 W Orange Ave, El Centro, CA 92243"}},{"type":"Feature","geometry":{"type":"Point","coordinates":[-115.5224,32.9715]},"id":"546532eb-8741-4af6-85d2-c881372f87bf","properties":{"name":"Brawley Public Library - Del Rio Branch","type":["hydration_station"],"hours":"Mon-Tues 10 am-1 pm, 2 pm - 6pm, Closed 1 pm-2 pm","phone":"760.768.2170","address":"1501 I St, Brawley, CA 92227"}},{"type":"Feature","geometry":{"type":"Point","coordinates":[-115.5749,33.2405]},"id":"0bac6fa6-9556-45fb-9d14-0377f9f24403","properties":{"name":"Imperial County Fire Station #7","type":["cool_center","hydration_station"],"hours":"Mon. - Sun. 10 am - 6pm, Please call ahead to confirm if the site will be open. Hydration station is dependent on staff availability.","phone":"442.265.7512","address":"8071 Luxor Ave., Niland, Ca 92251"}},{"type":"Feature","geometry":{"type":"Point","coordinates":[-115.9956,32.7323]},"id":"b30fc2a9-f84e-45cf-bec8-d816a0881e18","properties":{"name":"Imperial Valley Desert Museum","type":["cool_center","hydration_station"],"hours":"Wed. - Sun. 10 am- 4 pm","phone":"760.358.7016","address":"11 Frontage Rd, Ocotillo, CA 92259"}},{"type":"Feature","geometry":{"type":"Point","coordinates":[-115.5212,32.9787]},"id":"a53efac0-215a-432a-9a20-05699a8f76ab","properties":{"name":"Brawley Public Library","type":["hydration_station"],"hours":"Wed-Fri 10am-1pm,2pm-6pm closed 12pm-1pm","phone":"760.344.1891","address":"400 Main St, Ste 1, Brawley, CA 92227"}},{"type":"Feature","geometry":{"type":"Point","coordinates":[-115.5331,32.7313]},"id":"8831231a-6761-49d8-94ed-46d6c3f1f22a","properties":{"name":"Heber Community Center/Library","type":["cool_center","hydration_station"],"hours":"Mon. & Wed. 9 am- 5:30 pm. Fri. 10 am - 2 pm","phone":"442.265.7131","address":"1132 Heber Ave, Heber, CA 92249"}},{"type":"Feature","geometry":{"type":"Point","coordinates":[-115.5576,32.7757]},"id":"d795fb52-6e78-442f-84ba-acf54c5da1a8","properties":{"name":"Imperial Valley Mall Food Court","type":["cool_center","hydration_station"],"hours":"Mon.- Thur. 10 am- 8 pm & Sunday 11am-7 pm","phone":"760.352.0800","address":"3451 Dogwood Rd, El Centro, CA 92243"}},{"type":"Feature","geometry":{"type":"Point","coordinates":[-115.3806,32.8345]},"id":"be3acca6-c3c9-4112-8c46-738007628325","properties":{"name":"Imperial County Holtville Library","type":["cool_center","hydration_station"],"hours":"Mon. - Fri. 9 am - 5:30 pm. Closed 12-1 pm.","phone":"760.356.2385","address":"101 E 6th St, Holtville, CA 92250"}},{"type":"Feature","geometry":{"type":"Point","coordinates":[-115.5697,32.8472]},"id":"c8b2f5b7-0250-4c12-b566-259329ce3af5","properties":{"name":"Imperial Public Library","type":["cool_center","hydration_station"],"hours":"Mon.-Thurs. 10 am- 7 pm & Friday 8 am- 5 pm.","phone":"760.355.1332","address":"200 W 9th St, Imperial, CA 92251"}},{"type":"Feature","geometry":{"type":"Point","coordinates":[-115.49972,32.67888]},"id":"3ee0915e-54e5-47b7-b0be-092d4edc9cff","properties":{"name":"Camarena Memorial Library","type":["cool_center","hydration_station"],"hours":"Mon.-Thurs. 12 pm- 7 pm & every other Friday 10 am- 5 pm.","phone":"760.768.2170","address":"850 Encinas Ave, Calexico, CA 92231"}}]}
